City_ID,City,Lat,Lng,Max Temp,Humidity,Cloudiness,Wind Speed,Country,Date
0,ilulissat,69.2167,-51.1,274.16,93,100,1.54,GL,1682286200
1,altamira,-3.2033,-52.2064,299.2,89,75,0.0,BR,1682286201
2,lavrentiya,65.5833,-171.0,265.46,69,2,2.45,RU,1682286201
3,tasiilaq,65.6145,-37.6368,275.24,91,100,2.68,GL,1682286202
4,hobart,-42.8794,147.3294,280.96,84,0,3.6,AU,1682286009
5,ushuaia,-54.8,-68.3,279.96,57,20,2.06,AR,1682286203
6,cayenne,4.9333,-52.3333,298.17,94,0,1.54,GF,1682286204
7,atuona,-9.8,-139.0333,300.62,77,18,6.52,PF,1682286204
8,asfi,32.2994,-9.2372,290.34,73,28,9.69,MA,1682286205
9,yumen,40.2833,97.2,281.89,47,97,10.02,CN,1682286205
10,torbay,47.6666,-52.7314,276.64,97,100,9.83,CA,1682286206
11,thompson,55.7435,-97.8558,275.24,48,20,4.12,CA,1682285928
12,sola,-13.8833,167.55,301.52,84,75,3.6,VU,1682286207
13,wanxian,30.8039,108.3897,284.04,81,100,2.11,CN,1682286207
14,mgandu,-5.95,34.1333,291.6,78,100,1.78,TZ,1682286208
15,mahibadhoo,3.7833,72.9667,301.98,77,73,3.55,MV,1682286208
16,lata,40.1629,-8.3327,289.71,98,82,0.79,PT,1682286209
17,angoram,-4.0625,144.0661,297.67,96,100,0.9,PG,1682286209
18,mount gambier,-37.8333,140.7667,284.6,82,0,2.32,AU,1682286210
19,brownsville,25.9018,-97.4975,295.98,82,100,11.32,US,1682286188
20,kapaa,22.0752,-159.319,300.14,77,100,2.06,US,1682285953
21,busselton,-33.65,115.3333,286.8,73,100,6.03,AU,1682286211
22,victoria,22.2855,114.1577,297.25,89,66,4.47,HK,1682285986
23,lebu,-37.6167,-73.65,285.84,82,0,5.79,CL,1682286212
24,hamilton,39.1834,-84.5333,281.9,53,100,6.69,US,1682285919
25,port elizabeth,-33.918,25.5701,293.76,82,0,1.03,ZA,1682286213
26,victoria point,-27.5833,153.3,295.9,81,32,4.47,AU,1682286213
27,buenos aires,-34.6132,-58.3772,293.15,77,0,4.63,AR,1682286196
28,gilbues,-9.8317,-45.3439,299.35,54,89,0.84,BR,1682286214
29,bluff,-46.6,168.3333,284.71,66,56,11.51,NZ,1682286214
30,reyes,-14.3167,-67.3833,296.69,82,93,0.78,BO,1682286215
31,namatanai,-3.6667,152.4333,300.72,77,86,2.18,PG,1682286215
32,yellowknife,62.456,-114.3525,283.44,37,20,3.09,CA,1682286216
33,rikitea,-23.1203,-134.9692,299.34,87,100,6.62,PF,1682286216
34,qaanaaq,77.484,-69.3632,261.72,92,94,0.57,GL,1682286216
35,yzeure,46.5644,3.355,282.82,85,82,3.37,FR,1682286218
36,mataura,-46.1927,168.8643,284.53,90,98,4.31,NZ,1682286218
37,bredasdorp,-34.5322,20.0403,291.27,82,100,2.82,ZA,1682286218
38,biak,-0.9131,122.8766,297.91,81,61,1.36,ID,1682286219
39,xining,36.6167,101.7667,274.79,92,100,0.27,CN,1682286219
40,butaritari,3.0707,172.7902,301.34,79,56,7.37,KI,1682286220
41,njeru,0.4186,33.1731,290.76,96,100,2.51,UG,1682286220
42,cidreira,-30.1811,-50.2056,294.81,80,78,6.29,BR,1682286221
43,san patricio,28.017,-97.5169,295.07,86,100,4.71,US,1682286221
44,ribeira grande,38.5167,-28.7,290.25,94,100,2.68,PT,1682286221
45,marienburg,54.0359,19.0266,286.5,93,100,2.83,PL,1682286222
46,saint george,37.1041,-113.5841,298.39,21,0,3.6,US,1682285992
47,cabo san lucas,22.8909,-109.9124,306.32,23,20,4.12,MX,1682286013
48,taltal,-25.4,-70.4833,292.35,75,20,2.58,CL,1682286223
49,brookhaven,31.5791,-90.4407,290.96,67,97,3.7,US,1682285950
50,pitkyaranta,61.5734,31.4792,273.49,100,100,2.53,RU,1682286224
51,esperance,-33.8667,121.9,292.98,40,68,8.31,AU,1682286225
52,saint-philippe,-21.3585,55.7679,298.92,74,100,2.81,RE,1682286225
53,hasaki,35.7333,140.8333,286.05,59,100,8.5,JP,1682286226
54,nanakuli,21.3906,-158.1547,302.12,63,0,4.63,US,1682286226
55,ponta do sol,32.6667,-17.1,292.43,75,98,1.27,PT,1682286227
56,new norfolk,-42.7826,147.0587,280.77,66,8,1.44,AU,1682286227
57,leningradskiy,69.3833,178.4167,257.3,88,28,7.13,RU,1682286228
58,severo-kurilsk,50.6789,156.125,273.24,89,88,6.99,RU,1682286228
59,punta arenas,-53.15,-70.9167,282.21,61,0,2.06,CL,1682286059
60,kurilsk,45.2333,147.8833,273.24,87,96,4.11,RU,1682286229
61,souillac,-20.5167,57.5167,298.36,83,40,1.54,MU,1682286229
62,muscat,23.6139,58.5922,304.16,60,85,2.26,OM,1682285944
63,tuktoyaktuk,69.4541,-133.0374,254.15,78,20,3.09,CA,1682286224
64,port alfred,-33.5906,26.891,293.94,66,97,3.51,ZA,1682286224
65,narsaq,60.9167,-46.05,281.27,76,96,0.84,GL,1682286231
66,yar-sale,66.8333,70.8333,273.08,98,100,6.49,RU,1682286231
67,sur,22.5667,59.5289,301.8,55,97,4.82,OM,1682286232
68,taoudenni,22.6783,-3.9836,303.89,9,0,2.32,ML,1682286232
69,andilamena,-17.0167,48.5833,291.9,96,60,1.3,MG,1682286233
70,iquique,-20.2208,-70.1431,296.17,79,4,3.75,CL,1682286055
71,swan river,52.1058,-101.2676,278.09,42,59,5.66,CA,1682286234
72,lagoa,39.05,-27.9833,289.47,94,100,7.15,PT,1682286234
73,kahului,20.8947,-156.47,301.16,51,20,4.12,US,1682286235
74,georgetown,5.4112,100.3354,299.11,94,20,2.06,MY,1682286096
75,nalut,30.3333,10.85,293.28,29,2,6.05,LY,1682286236
76,zhigansk,66.7697,123.3711,262.62,96,37,3.12,RU,1682286236
77,avarua,-21.2078,-159.775,299.18,65,33,5.14,CK,1682286220
78,san cristobal,7.7669,-72.225,300.25,89,66,0.99,VE,1682286049
79,pevek,69.7008,170.3133,271.96,70,1,2.31,RU,1682286237
80,katsuura,35.1333,140.3,284.02,85,100,8.6,JP,1682286238
81,acapulco,16.8634,-99.8901,304.05,62,0,3.6,MX,1682286238
82,soderhamn,61.3037,17.0592,273.68,92,100,5.19,SE,1682286239
83,kyaikkami,16.08,97.5675,301.13,76,68,1.02,MM,1682286239
84,vardo,70.3705,31.1107,269.14,100,65,10.29,NO,1682286239
85,turukhansk,65.8167,87.9833,273.27,98,100,4.7,RU,1682286240
86,belyy yar,53.6039,91.3903,269.09,63,36,1.0,RU,1682286240
87,bethel,41.3712,-73.414,289.83,72,75,4.63,US,1682285978
88,korla,41.7597,86.1469,282.06,54,73,0.74,CN,1682286241
89,arraial do cabo,-22.9661,-42.0278,296.07,73,0,1.54,BR,1682286242
90,antoing,50.556,3.4653,282.59,91,79,6.01,BE,1682286242
91,alofi,-19.0595,-169.9187,300.09,69,3,6.17,NU,1682286243
92,luderitz,-26.6481,15.1594,292.05,48,100,1.83,NA,1682286243
93,jamestown,42.097,-79.2353,279.92,66,100,3.6,US,1682286222
94,upernavik,72.7868,-56.1549,273.24,98,100,3.99,GL,1682286244
95,wenling,28.3669,121.36,287.87,90,100,3.75,CN,1682286245
96,chicama,-7.8447,-79.1469,297.45,67,61,3.68,PE,1682286245
97,chokurdakh,70.6333,147.9167,267.57,95,100,3.56,RU,1682286246
98,charters towers,-20.1,146.2667,293.11,78,99,5.46,AU,1682286247
99,makakilo city,21.3469,-158.0858,301.33,64,0,4.63,US,1682286247
100,kailua,21.4022,-157.7394,302.14,65,0,3.09,US,1682286248
101,gambela,8.25,34.5833,297.73,80,99,0.94,ET,1682286248
102,clyde river,70.4692,-68.5914,265.28,86,40,6.17,CA,1682285982
103,kruisfontein,-34.0033,24.7314,292.53,71,100,1.67,ZA,1682285969
104,puksoozero,62.5903,40.6066,272.74,93,99,1.94,RU,1682286250
105,guerande,47.3291,-2.4283,283.83,77,2,8.92,FR,1682286250
106,hilo,19.7297,-155.09,303.31,70,75,4.63,US,1682286223
107,jalu,29.0331,21.5482,298.7,23,0,4.51,LY,1682286251
108,verkhnyaya inta,65.9811,60.3094,266.65,91,60,7.11,RU,1682286252
109,aksarka,66.5606,67.7975,267.9,90,98,8.37,RU,1682286252
110,east london,-33.0153,27.9116,293.27,62,100,3.48,ZA,1682286253
111,chake chake,-5.2459,39.7666,298.23,90,98,2.4,TZ,1682286253
112,sinop,41.7711,34.8709,280.43,93,100,1.14,TR,1682286254
113,guerrero negro,27.9769,-114.0611,293.43,59,10,7.14,MX,1682286254
114,walvis bay,-22.9575,14.5053,291.68,72,100,4.63,NA,1682286255
115,rybnoye,54.7256,39.5119,283.5,46,11,2.75,RU,1682286256
116,san-pedro,4.7485,-6.6363,299.88,87,67,2.19,CI,1682286256
117,galle,6.0367,80.217,300.29,83,100,0.65,LK,1682286000
118,hermanus,-34.4187,19.2345,291.37,91,100,3.91,ZA,1682286221
119,talnakh,69.4865,88.3972,272.71,91,95,3.48,RU,1682286254
120,raudeberg,61.9875,5.1352,277.52,64,100,15.4,NO,1682286258
121,bengkulu,-3.8004,102.2655,298.02,86,23,1.75,ID,1682286259
122,klaksvik,62.2266,-6.589,275.66,64,100,11.26,FO,1682286259
123,genhe,50.7833,121.5167,268.25,65,17,1.07,CN,1682286260
124,saskylakh,71.9167,114.0833,256.78,100,96,2.03,RU,1682286260
125,bossier city,32.516,-93.7321,287.42,70,75,2.57,US,1682286261
126,barrow,71.2906,-156.7887,258.16,78,75,4.63,US,1682286252
127,hithadhoo,-0.6,73.0833,301.54,76,97,2.38,MV,1682286246
128,xiuyan,40.2928,123.2744,280.37,22,100,1.89,CN,1682286262
129,tiksi,71.6872,128.8694,261.54,96,80,1.71,RU,1682286262
130,saint-pierre,-21.3393,55.4781,298.97,73,0,2.57,RE,1682286263
131,camopi,3.1655,-52.3158,296.49,97,87,1.18,GF,1682286263
132,touros,-5.1989,-35.4608,299.48,79,79,5.27,BR,1682286264
133,lososina,48.9975,140.3106,276.59,68,88,2.29,RU,1682286264
134,hearst,49.6835,-83.6665,273.29,92,100,2.53,CA,1682286265
135,bandar-e lengeh,26.5579,54.8807,297.21,83,25,4.12,IR,1682286265
136,cape town,-33.9258,18.4232,291.69,92,75,7.2,ZA,1682286152
137,krivodanovka,55.0881,82.6551,280.2,45,0,5.0,RU,1682286266
138,myre,69.1036,15.9492,271.12,57,56,3.13,NO,1682286267
139,totma,59.9747,42.7642,280.22,85,100,1.02,RU,1682286267
140,alamo,20.9167,-97.6833,307.95,46,76,4.57,MX,1682286267
141,bahia honda,22.9036,-83.1592,300.96,59,12,3.77,CU,1682286268
142,gazanjyk,39.2446,55.5154,295.26,37,34,4.23,TM,1682286268
143,carnarvon,-24.8667,113.6333,295.33,74,100,5.58,AU,1682286244
144,vaini,-21.2,-175.2,300.24,74,75,5.66,TO,1682286228
145,chuy,-33.6971,-53.4616,291.54,88,100,3.63,UY,1682285957
146,ravar,31.2656,56.8055,295.47,32,100,1.93,IR,1682286270
147,port-de-bouc,43.4,4.9833,288.47,85,0,6.69,FR,1682286270
148,gravdal,68.1214,13.5031,269.09,86,0,2.57,NO,1682286271
149,mar del plata,-38.0023,-57.5575,290.16,90,20,2.57,AR,1682286145
150,sri aman,1.2376,111.4621,298.18,100,99,2.57,MY,1682286272
151,richards bay,-28.783,32.0377,291.85,84,32,1.67,ZA,1682286272
152,bambous virieux,-20.3428,57.7575,298.29,83,40,1.54,MU,1682286272
153,mkushi,-13.6202,29.3939,290.37,84,99,1.52,ZM,1682286273
154,muros,42.7762,-9.0603,289.87,87,96,2.16,ES,1682286273
155,bilibino,68.0546,166.4372,270.47,64,39,2.44,RU,1682286274
156,nizhniy odes,63.6445,54.856,263.79,97,18,1.82,RU,1682286274
157,muisne,0.6,-80.0333,300.58,75,100,2.93,EC,1682286275
158,manacor,39.5696,3.2096,289.48,77,30,2.59,ES,1682286275
159,tsogni,-2.7942,10.0988,298.48,92,62,2.61,GA,1682286275
160,amalapuram,16.5833,82.0167,299.21,87,8,1.16,IN,1682286276
161,kavieng,-2.5744,150.7967,300.33,78,100,1.82,PG,1682286276
162,nakhodka,42.8333,132.8947,277.82,42,0,3.8,RU,1682286277
163,albany,42.6001,-73.9662,285.17,78,97,0.45,US,1682286277
164,puerto ayora,-0.7393,-90.3518,303.13,86,59,4.47,EC,1682286277
165,ostrovnoy,68.0531,39.5131,267.75,77,9,9.68,RU,1682286278
166,unai,-16.3575,-46.9061,297.31,61,86,2.07,BR,1682286279
167,balkanabat,39.5108,54.3671,296.85,38,74,2.83,TM,1682286279
168,polovinnoye,54.7914,65.9864,279.28,87,32,4.17,RU,1682286279
169,beyneu,45.3167,55.2,289.61,45,2,4.79,KZ,1682286280
170,mahebourg,-20.4081,57.7,298.31,83,40,1.54,MU,1682286281
171,aitape,-3.1374,142.3475,299.65,80,96,1.81,PG,1682286281
172,goderich,43.7501,-81.7165,279.77,70,61,2.57,CA,1682286281
173,rocha,-34.4833,-54.3333,290.09,96,100,2.53,UY,1682286282
174,dali,25.7,100.1833,284.44,79,8,2.06,CN,1682286282
175,maceio,-9.6658,-35.7353,300.84,74,20,4.63,BR,1682286283
176,ahuimanu,21.4447,-157.8378,301.99,65,0,4.12,US,1682286284
177,mindelo,16.8901,-24.9804,295.9,64,20,7.72,CV,1682286284
178,salalah,17.0151,54.0924,301.2,78,20,2.57,OM,1682286285
179,parainen,60.3067,22.301,283.4,74,100,6.5,FI,1682286285
180,sao joao da barra,-21.6403,-41.0511,295.2,74,15,3.77,BR,1682286245
181,isangel,-19.55,169.2667,300.21,83,20,0.0,VU,1682286286
182,moultrie,31.1799,-83.7891,299.66,21,0,0.0,US,1682286287
183,scarborough,54.2797,-0.4044,281.29,86,88,1.79,GB,1682286287
184,upata,8.0086,-62.3989,298.26,91,100,1.37,VE,1682286288
185,paraiso,9.8383,-83.8656,298.43,57,38,1.34,CR,1682286288
186,jeremie,18.65,-74.1167,299.81,66,7,3.36,HT,1682286289
187,antalaha,-14.9003,50.2788,296.77,93,43,1.82,MG,1682286289
188,isilkul,54.9109,71.2728,281.07,86,99,4.2,RU,1682286290
189,lompoc,34.6391,-120.4579,296.31,79,100,9.83,US,1682286290
190,necochea,-38.5473,-58.7368,286.71,89,0,3.85,AR,1682286291
191,seoul,37.5683,126.9778,285.91,47,0,3.6,KR,1682286013
192,tigil,57.8,158.6667,274.4,88,99,4.15,RU,1682286291
193,port-gentil,-0.7193,8.7815,301.13,83,40,3.6,GA,1682286292
194,half moon bay,37.4636,-122.4286,296.97,79,0,10.8,US,1682286292
195,camacha,33.0833,-16.3333,289.83,77,20,2.57,PT,1682286293
196,castro,-24.7911,-50.0119,286.72,79,0,1.66,BR,1682286267
197,pantai remis,4.4557,100.6288,298.16,89,100,1.32,MY,1682286293
198,rengasdengklok,-6.1592,107.2981,298.49,87,70,2.58,ID,1682286294
199,santa barbara,34.7333,-120.0343,297.23,63,0,7.2,US,1682286232
200,mamallapuram,12.6264,80.1722,302.07,77,100,3.43,IN,1682286295
201,beaverlodge,55.2166,-119.4361,283.79,68,100,5.79,CA,1682286295
202,college,64.8569,-147.8028,264.03,52,100,10.8,US,1682286166
203,airai,-8.9266,125.4092,288.77,95,91,1.52,TL,1682286296
204,surin,14.8818,103.4936,300.32,99,28,0.79,TH,1682286296
205,roebourne,-20.7833,117.1333,299.04,61,79,1.47,AU,1682286297
206,point pleasant,40.0832,-74.0682,292.65,43,100,4.12,US,1682286297
207,havre-saint-pierre,50.2334,-63.5986,278.35,75,100,3.09,CA,1682286297
208,ejido,8.5514,-71.2375,295.59,87,76,2.39,VE,1682286298
209,sao filipe,14.8961,-24.4956,297.16,69,4,6.01,CV,1682286298
210,hangu,39.2489,117.7892,281.17,45,100,2.37,CN,1682286299
211,lanzhou,36.0564,103.7922,278.95,68,98,0.56,CN,1682286299
212,laurel,39.0993,-76.8483,289.83,51,40,5.66,US,1682286299
213,acarau,-2.8856,-40.12,299.05,83,99,5.25,BR,1682286300
214,salinopolis,-0.6136,-47.3561,299.36,86,95,3.26,BR,1682286300
215,mogadishu,2.0371,45.3438,301.44,75,100,3.57,SO,1682286301
216,dikson,73.5069,80.5464,274.08,86,99,8.41,RU,1682286243
217,alyangula,-13.8483,136.4192,300.88,71,91,6.09,AU,1682286302
218,methven,-43.6333,171.65,283.72,42,31,0.89,NZ,1682286303
219,bathsheba,13.2167,-59.5167,298.49,88,75,5.66,BB,1682286256
220,sioux lookout,50.1001,-91.917,275.19,41,75,0.0,CA,1682286073
221,oeiras do para,-2.0031,-49.8544,298.38,90,100,0.67,BR,1682286304
222,williams lake,52.1415,-122.1445,284.91,66,100,7.2,CA,1682286305
223,deputatskiy,69.3,139.9,264.57,93,100,1.54,RU,1682286305
224,towada,40.6127,141.2067,280.49,54,21,6.47,JP,1682286305
225,riyadh,24.6877,46.7219,300.23,31,75,1.94,SA,1682286300
226,caravelas,-17.7125,-39.2481,298.19,73,68,5.11,BR,1682286306
227,khatanga,71.9667,102.5,254.98,99,71,2.29,RU,1682286307
228,avera,33.194,-82.5271,297.8,37,31,3.26,US,1682286307
229,oksfjord,70.2396,22.3479,272.19,87,100,3.28,NO,1682286307
230,ngaglik,-6.84,111.3671,296.55,93,100,1.82,ID,1682286308
231,pringsewu,-5.3582,104.9744,296.22,97,76,0.21,ID,1682286308
232,wyndham,37.6985,-77.6125,294.27,40,20,3.6,US,1682286309
233,nanyamba,-10.6833,39.8333,294.59,99,27,1.59,TZ,1682286309
234,poiana marului,45.6,25.3,278.24,88,13,2.05,RO,1682286309
235,klyuchi,52.2667,79.1667,280.74,54,89,7.56,RU,1682286310
236,saint-georges,12.0564,-61.7485,300.97,78,75,8.75,GD,1682286310
237,rockland,41.1668,-74.0496,291.18,72,67,0.89,US,1682286311
238,tautira,-17.7333,-149.15,300.11,83,100,6.91,PF,1682286311
239,san blas,21.5167,-105.2667,310.09,50,100,3.08,MX,1682286311
240,dingle,10.9995,122.6711,298.6,87,89,2.89,PH,1682286312
241,luanda,-8.8368,13.2343,301.15,78,40,3.6,AO,1682286313
242,kuito,-12.3833,16.9333,288.95,90,71,0.4,AO,1682286313
243,wewak,-3.5534,143.6268,299.51,85,100,2.35,PG,1682286313
244,sitka,57.0531,-135.33,284.09,58,100,4.63,US,1682286314
245,nyurba,63.2842,118.3319,262.36,97,95,1.41,RU,1682286223
246,lindi,-10.0,39.7167,296.26,98,15,1.99,TZ,1682286315
247,kaitangata,-46.2817,169.8464,283.67,63,58,6.61,NZ,1682286232
248,aklavik,68.2191,-135.0107,257.82,81,100,6.7,CA,1682286316
249,teguise,29.0605,-13.564,290.27,68,20,5.14,ES,1682286317
250,ourem,39.6417,-8.5919,288.46,98,41,2.07,PT,1682286317
251,deqing,30.5448,119.9599,287.01,93,100,2.75,CN,1682286318
252,vigia del fuerte,6.5789,-76.8863,299.63,90,93,1.08,CO,1682286318
253,adrar,20.5022,-10.0711,299.71,20,0,4.65,MR,1682286298
254,san policarpo,12.1791,125.5072,299.74,83,76,2.46,PH,1682286319
255,pirgos,35.1167,25.7178,290.16,60,1,2.4,GR,1682286320
256,nikolsk,53.7189,46.0712,281.87,55,23,1.92,RU,1682286320
257,kirakira,-10.4544,161.9205,302.08,75,28,3.03,SB,1682286321
258,fortuna,40.5982,-124.1573,286.85,84,100,1.34,US,1682286256
259,tulun,54.5611,100.5792,270.84,72,3,1.97,RU,1682286321
260,areosa,41.7178,-8.8571,288.29,95,86,1.18,PT,1682286322
261,calera,33.1029,-86.7536,292.94,46,20,2.57,US,1682286323
262,nikolskoye,59.7035,30.7861,286.37,66,45,3.25,RU,1682286323
263,tura,25.5198,90.2201,291.04,74,22,1.29,IN,1682286323
264,lianzhou,24.7811,112.3825,285.53,96,100,2.52,CN,1682286324
265,kodiak,57.79,-152.4072,276.88,38,0,7.2,US,1682286274
266,kloulklubed,7.0419,134.2556,299.43,72,100,2.8,PW,1682286325
267,ilhabela,-23.7781,-45.3581,294.79,84,7,3.89,BR,1682286325
268,dudinka,69.4058,86.1778,272.94,83,100,6.5,RU,1682286262
269,ararangua,-28.9347,-49.4858,292.6,87,12,2.2,BR,1682286326
270,tra vinh,9.9347,106.3453,299.8,79,93,1.76,VN,1682286234
271,nieuw nickerie,5.95,-56.9833,297.33,90,100,1.73,SR,1682286327
272,srednekolymsk,67.45,153.6833,272.72,83,97,7.0,RU,1682286327
273,kaspiysk,42.8816,47.6392,286.25,71,40,4.02,RU,1682286328
274,thinadhoo,0.5333,72.9333,301.85,75,84,2.62,MV,1682286315
275,sao jose da coroa grande,-8.8978,-35.1478,298.86,82,76,3.85,BR,1682286328
276,beidao,34.5686,105.8933,277.18,85,95,1.42,CN,1682286329
277,baherden,38.4362,57.4316,296.2,30,77,2.43,TM,1682286329
278,la solana,38.9442,-3.2381,286.06,48,7,2.42,ES,1682286313
279,manado,1.487,124.8455,296.58,94,20,1.03,ID,1682286330
280,ayan,56.45,138.1667,272.61,66,14,5.72,RU,1682286330
281,ngunguru,-35.6167,174.5,290.1,70,89,8.38,NZ,1682286331
282,plettenberg bay,-34.0527,23.3716,292.63,69,98,1.57,ZA,1682286331
283,vila franca do campo,37.7167,-25.4333,291.38,95,92,6.8,PT,1682286305
284,butembo,0.15,29.2833,288.0,100,100,0.34,CD,1682286332
285,staryy nadym,65.6118,72.6842,274.28,97,100,7.04,RU,1682286332
286,saint-jovite,46.1186,-74.5966,280.46,97,100,1.69,CA,1682286272
287,longyearbyen,78.2186,15.6401,263.06,85,0,4.63,SJ,1682286334
288,kavaratti,10.5669,72.642,301.55,72,77,4.88,IN,1682286334
289,primo tapia,32.22,-116.9172,296.92,70,36,3.59,MX,1682286335
290,poitiers,46.5833,0.3333,283.38,61,20,4.63,FR,1682286335
291,carora,10.1755,-70.0827,300.89,63,87,1.99,VE,1682286335
292,matara,5.9485,80.5353,298.99,89,100,0.8,LK,1682286336
293,malakal,9.5334,31.6605,302.64,50,61,3.99,SS,1682286336
294,bastrop,32.7562,-91.8724,286.97,61,100,1.34,US,1682286247
295,ambilobe,-13.2,49.05,296.14,96,4,1.26,MG,1682286227
296,arman,59.7,150.1667,274.73,62,72,8.95,RU,1682286337
297,magalia,39.8121,-121.5783,297.27,41,6,3.25,US,1682286338
298,grootfontein,-19.5667,18.1167,295.91,56,98,1.03,NA,1682286338
299,faanui,-16.4833,-151.75,301.1,77,94,5.75,PF,1682286340
300,itarema,-2.9248,-39.9167,298.51,85,99,4.57,BR,1682286340
301,ishim,56.1128,69.4902,280.18,88,88,5.96,RU,1682286340
302,la tiza,7.75,-80.2833,298.16,99,100,3.31,PA,1682286341
303,uray,60.1247,64.7758,273.05,54,18,6.11,RU,1682286341
304,wanning,18.8003,110.3967,298.46,94,37,3.58,CN,1682286342
305,yerofey pavlovich,53.9667,121.9667,269.39,72,79,1.69,RU,1682286342
306,coihaique,-45.5752,-72.0662,287.49,71,75,2.06,CL,1682286342
307,esso,55.9333,158.7,271.47,91,100,2.63,RU,1682286343
308,svetlogorsk,52.6333,29.7333,283.13,68,55,2.83,BY,1682286343
309,kabare,-2.4683,28.8242,289.64,98,82,1.25,CD,1682286344
310,beloha,-25.1667,45.05,293.46,89,100,2.59,MG,1682286344
311,vila do maio,15.1333,-23.2167,295.59,76,5,8.38,CV,1682286345
312,vao,-22.6667,167.4833,298.44,77,52,4.88,NC,1682286345
313,skegness,53.1436,0.3363,282.13,90,100,9.62,GB,1682286345
314,loa janan,-0.583,117.095,296.82,98,95,0.09,ID,1682286346
315,najran,17.4924,44.1277,294.51,55,33,1.67,SA,1682286346
316,hurghada,27.2574,33.8129,298.17,53,0,2.06,EG,1682286347
317,mantua,45.1667,10.7833,291.73,80,100,3.01,IT,1682286347
318,sorland,67.667,12.6934,274.07,59,50,5.93,NO,1682286347
319,mahanoro,-19.9,48.8,296.88,94,24,2.58,MG,1682286348
320,phra phutthabat,14.7253,100.7954,300.17,80,22,2.11,TH,1682286348
321,saint-joseph,-21.3667,55.6167,298.36,77,100,1.48,RE,1682286349
322,pangnirtung,66.1451,-65.7125,274.55,90,99,0.95,CA,1682286349
323,prince rupert,54.3161,-130.3201,281.2,81,100,9.26,CA,1682286350
324,sinjai,-5.1241,120.253,298.51,85,83,1.18,ID,1682286350
325,serebryanyy bor,56.8,124.8,266.03,94,100,1.01,RU,1682286351
326,esenyurt,41.0333,28.6753,284.13,81,0,5.14,TR,1682286351
327,alice springs,-23.7,133.8833,282.9,81,0,2.14,AU,1682286351
328,gotsu,35.0,132.2167,284.17,60,100,5.07,JP,1682286352
329,huilong,31.8111,121.655,285.31,79,100,9.84,CN,1682286352
330,kununurra,-15.7667,128.7333,289.14,88,6,0.0,AU,1682286303
331,nishihara,26.1842,127.7558,294.75,85,40,3.09,JP,1682286353
332,port victoria,0.0939,33.9756,292.78,92,100,6.06,KE,1682286354
333,aksu,41.1231,80.2644,285.31,19,31,2.58,CN,1682286354
334,maloye verevo,59.6136,30.1728,286.02,65,68,3.35,RU,1682286355
335,provideniya,64.3833,-173.3,267.24,58,20,7.15,RU,1682286338
336,gushikawa,26.3544,127.8686,294.72,80,40,3.09,JP,1682286355
337,bulgan,48.8125,103.5347,271.06,82,100,3.47,MN,1682286247
338,lashio,22.9333,97.75,291.73,69,3,0.87,MM,1682286356
339,abnub,27.2696,31.1511,296.27,28,24,2.2,EG,1682286357
340,iqaluit,63.7506,-68.5145,274.0,86,100,4.63,CA,1682286116
341,liverpool,53.4106,-2.9779,282.75,83,0,3.09,GB,1682286132
342,waddan,29.1614,16.139,291.97,62,14,5.24,LY,1682286358
343,geraldton,-28.7667,114.6,293.38,64,95,5.66,AU,1682286260
344,tomatlan,19.9333,-105.25,303.59,37,39,3.88,MX,1682286359
345,lerwick,60.1545,-1.1494,277.15,70,100,14.59,GB,1682286359
346,babati,-4.2167,35.75,290.87,97,100,0.85,TZ,1682286359
347,lengshuijiang,27.6881,111.4294,280.65,93,100,1.51,CN,1682286360
348,george town,5.4112,100.3354,299.11,94,20,2.06,MY,1682286311
349,laguna,38.421,-121.4238,300.53,40,0,4.12,US,1682286361
350,lufilufi,-13.8745,-171.5986,303.03,76,47,3.58,WS,1682286361
351,bang sao thong,13.595,100.8304,305.38,86,20,3.09,TH,1682286361
352,portland,45.5234,-122.6762,286.46,75,100,2.06,US,1682285974
353,aykhal,66.0,111.5,263.34,98,100,0.56,RU,1682286363
354,kishi,9.0833,3.85,296.17,89,100,3.2,NG,1682286363
355,labytnangi,66.6572,66.4183,267.47,77,100,5.96,RU,1682286257
356,kiruna,67.8557,20.2251,263.66,73,1,1.03,SE,1682286364
357,broken hill,-31.95,141.4333,289.14,58,0,3.95,AU,1682286364
358,ballina,-28.8667,153.5667,295.28,63,79,8.18,AU,1682286365
359,san pedro,14.35,121.0167,301.72,77,75,2.06,PH,1682286323
360,moscow,55.7522,37.6156,284.47,49,17,1.54,RU,1682286227
361,north battleford,52.7834,-108.2847,284.2,28,0,6.69,CA,1682286217
362,urucui,-7.2294,-44.5561,300.58,46,16,1.55,BR,1682286276
363,nicoya,10.1483,-85.452,304.91,54,19,3.97,CR,1682286244
364,havelock,34.8791,-76.9013,297.14,48,0,3.09,US,1682286368
365,buritis,-15.6178,-46.4233,297.16,63,83,1.44,BR,1682286368
366,pimentel,-6.8367,-79.9342,303.31,54,20,7.72,PE,1682286368
367,nouakchott,18.0858,-15.9785,296.11,72,0,6.25,MR,1682286369
368,cockburn town,21.4612,-71.1419,298.81,68,0,4.81,TC,1682286369
369,kyzyl-suu,42.3414,78.0056,281.47,40,100,3.12,KG,1682286370
370,high level,58.5169,-117.136,285.21,32,75,3.09,CA,1682286306
371,dire dawa,9.5931,41.8661,294.81,75,81,3.19,ET,1682286371
372,svetlyy,54.675,20.1347,281.18,93,77,3.92,RU,1682286372
373,fuente de oro,3.4594,-73.6128,297.4,90,100,0.35,CO,1682286372
374,stromness,58.965,-3.296,278.13,64,100,13.96,GB,1682286373
375,shakawe,-18.3667,21.85,296.29,49,88,0.55,BW,1682286373
376,codrington,-38.2667,141.9667,285.06,81,0,2.97,AU,1682286373
377,kargasok,59.0556,80.8572,277.04,86,100,4.43,RU,1682286374
378,valparaiso,-33.0393,-71.6273,290.37,77,20,5.14,CL,1682285954
379,takoradi,4.8845,-1.7554,300.6,85,81,3.06,GH,1682286375
380,aleksandrovsk-sakhalinskiy,50.8975,142.1561,273.34,91,100,4.73,RU,1682286376
381,kaka,37.3482,59.6143,293.95,36,63,1.41,TM,1682286377
382,cabo rojo,18.0866,-67.1457,301.62,64,35,1.34,PR,1682286377
383,katobu,-4.9408,122.5276,297.09,95,18,1.23,ID,1682286378
384,olinda,-8.0089,-34.8553,300.0,78,40,2.06,BR,1682286378
385,newport,51.5877,-2.9984,281.78,81,37,3.63,GB,1682286090
386,cherskiy,68.75,161.3,273.22,68,100,1.98,RU,1682286362
387,matagami,49.7502,-77.6328,280.21,81,100,2.06,CA,1682286380
388,tilichiki,60.4667,166.1,272.6,98,100,9.24,RU,1682286380
389,delijan,33.9905,50.6838,291.86,35,52,2.12,IR,1682286381
390,constitucion,-35.3333,-72.4167,286.74,82,9,4.0,CL,1682286382
391,santa marta,11.2408,-74.199,303.18,66,40,4.12,CO,1682286382
392,takhtamygda,54.1,123.5667,270.42,60,1,0.87,RU,1682286383
393,port shepstone,-30.7414,30.455,292.18,75,18,3.11,ZA,1682286383
394,sobolevo,54.4299,31.8996,283.78,67,84,2.28,RU,1682286384
395,jacareacanga,-6.2222,-57.7528,296.53,94,99,1.14,BR,1682286384
396,zbiroh,49.8602,13.7726,284.0,100,97,1.21,CZ,1682286385
397,rundu,-17.9333,19.7667,298.27,43,100,2.74,NA,1682286385
398,kaeo,-35.1,173.7833,290.55,91,52,5.09,NZ,1682286385
399,bonavista,48.6499,-53.1147,273.96,97,100,8.77,CA,1682286386
400,kingsport,36.5484,-82.5618,289.08,43,40,5.14,US,1682286387
401,ahipara,-35.1667,173.1667,289.84,74,97,8.93,NZ,1682286387
402,faya,18.3851,42.4509,289.21,57,32,1.46,SA,1682286323
403,zholymbet,51.7433,71.7122,279.73,87,17,6.15,KZ,1682286388
404,telimele,10.9167,-13.3333,297.29,62,15,1.61,GN,1682286389
405,luxor,25.6989,32.6421,303.18,20,77,6.69,EG,1682286389
406,agirish,61.9247,63.0231,266.75,91,7,3.94,RU,1682286390
407,thayetmyo,19.3167,95.1833,301.08,63,15,2.11,MM,1682286390
408,banda aceh,5.5577,95.3222,300.45,77,84,0.45,ID,1682286391
409,gimbi,9.1667,35.8333,289.27,76,100,1.84,ET,1682286391
410,bereda,43.2686,-7.5406,286.56,100,98,1.5,ES,1682286391
411,sukumo,32.9333,132.7333,287.5,64,98,0.39,JP,1682286392
412,apollonia,36.9716,24.7231,288.44,65,14,0.39,GR,1682286392
413,griffith,41.5284,-87.4237,278.88,63,100,4.12,US,1682286340
414,guliston,40.4897,68.7842,291.52,32,65,1.74,UZ,1682286393
415,burnie,-41.0667,145.9167,285.34,98,34,1.91,AU,1682286393
416,port macquarie,-31.4333,152.9167,289.76,80,82,4.89,AU,1682286394
417,waipawa,-41.4122,175.5153,282.38,70,100,8.96,NZ,1682286294
418,bambanglipuro,-7.95,110.2833,297.94,90,94,1.38,ID,1682286395
419,puerto rondon,6.2805,-71.1,302.75,61,96,1.79,CO,1682286395
420,aktash,50.3,87.7333,265.55,74,100,2.06,RU,1682286395
421,maksatikha,57.797,35.8825,284.65,63,98,2.45,RU,1682286396
422,lorengau,-2.0226,147.2712,300.42,81,100,1.29,PG,1682286396
423,evensk,61.95,159.2333,272.61,86,92,16.02,RU,1682286397
424,norman wells,65.282,-126.8329,262.17,67,100,6.69,CA,1682286275
425,vila velha,-20.3297,-40.2925,296.12,88,75,1.03,BR,1682286349
426,sawtell,-30.3833,153.1,291.59,88,75,5.66,AU,1682286398
427,lieksa,63.3167,30.0167,274.06,99,100,3.13,FI,1682286398
428,broome,42.2506,-75.833,282.03,88,100,5.66,US,1682286399
429,santarem,-2.4431,-54.7083,297.22,100,20,1.03,BR,1682286399
430,alugan,12.2188,125.4808,299.48,84,85,2.27,PH,1682286399
431,tiznit,29.5833,-9.5,293.0,61,33,0.16,MA,1682286400
432,bandrele,-12.9067,45.1914,299.01,89,94,1.54,YT,1682286400
433,nosy varika,-20.5833,48.5333,296.95,92,21,2.4,MG,1682286400
434,artesia,33.8658,-118.0831,302.52,67,0,5.14,US,1682286401
435,hobyo,5.3505,48.5268,301.86,76,100,5.78,SO,1682286402
436,labuhan,-6.8844,112.2051,298.59,88,95,3.15,ID,1682286402
437,harrison,30.4091,-89.0436,297.19,39,0,3.6,US,1682286339
438,dongkan,33.9997,119.8308,283.14,75,100,8.71,CN,1682286403
439,ginir,7.1333,40.7,288.82,79,99,2.66,ET,1682286404
440,port hardy,50.6996,-127.4199,282.25,87,100,3.6,CA,1682286168
441,natalinsk,56.4739,57.8698,279.53,86,62,1.5,RU,1682286404
442,san quintin,30.4833,-115.95,290.25,67,5,4.46,MX,1682286405
443,teguldet,57.3064,88.1667,273.64,91,100,2.03,RU,1682286405
444,north bend,43.4065,-124.2243,286.99,68,100,5.66,US,1682286235
445,ayia galini,35.1,24.6833,287.45,78,3,1.79,GR,1682286406
446,soyo,-6.1349,12.3689,299.4,89,100,0.98,AO,1682286406
447,batouri,4.4333,14.3667,296.06,74,93,0.68,CM,1682286407
448,villamontes,-21.25,-63.5,296.21,65,100,1.54,BO,1682286407
449,asau,46.4333,26.4,280.66,83,86,1.35,RO,1682286298
450,mehamn,71.0357,27.8492,272.1,93,40,3.09,NO,1682286408
451,misratah,32.3754,15.0925,290.19,74,83,2.91,LY,1682286409
452,tessalit,20.1986,1.0114,301.78,13,3,2.82,ML,1682286409
453,omsukchan,62.5333,155.8,268.55,89,95,4.56,RU,1682286409
454,tortoli,39.9256,9.6572,290.05,82,0,5.66,IT,1682286410
455,clinton,42.587,-82.9199,283.65,54,75,5.14,US,1682286279
456,aras,42.5617,-2.356,284.39,94,100,1.03,ES,1682286411
457,douglas,41.3,-96.167,286.21,34,100,3.09,US,1682286222
458,sorong,-0.8833,131.25,299.34,84,66,1.83,ID,1682286412
459,riverton,40.5219,-111.9391,289.55,35,75,2.68,US,1682286261
460,kismayo,-0.3582,42.5454,301.21,76,100,2.44,SO,1682286412
461,adre,13.4667,22.2,302.61,23,99,2.22,TD,1682286413
462,ulundi,-28.3352,31.4162,288.13,84,39,1.08,ZA,1682286413
463,rongcheng,30.634,117.8517,284.43,96,100,2.98,CN,1682286414
464,manggar,-2.8833,108.2667,300.33,83,90,2.05,ID,1682286414
465,ferme-neuve,46.7001,-75.4493,282.04,89,100,2.17,CA,1682286414
466,oyama,36.3,139.8,286.81,33,71,1.77,JP,1682286415
467,sungaipenuh,-2.0833,101.3833,291.55,97,99,1.31,ID,1682286415
468,batemans bay,-35.7167,150.1833,287.09,82,74,1.35,AU,1682286416
469,praia da vitoria,38.7333,-27.0667,292.29,88,75,7.25,PT,1682286416
470,saldanha,-33.0117,17.9442,289.18,97,100,4.5,ZA,1682286416
471,general pico,-35.6566,-63.7568,291.73,42,94,2.59,AR,1682286417
472,port-cartier,50.0334,-66.8654,278.97,89,100,5.1,CA,1682286417
473,mana,5.6592,-53.7767,296.24,95,100,0.31,GF,1682286418
474,conde,-7.2597,-34.9075,299.85,78,20,3.09,BR,1682286326
475,anshun,26.25,105.9333,283.81,85,100,4.14,CN,1682286418
476,kargil,34.5667,76.1,269.16,47,0,1.43,IN,1682286419
477,naze,28.3667,129.4833,292.66,80,38,6.08,JP,1682286419
478,hambantota,6.1241,81.1185,298.34,100,20,1.03,LK,1682286418
479,margate,51.3813,1.3862,281.98,88,99,2.68,GB,1682286420
480,zhangjiakou,40.81,114.8794,278.65,65,68,1.82,CN,1682286420
481,lebyazhye,55.2689,66.4947,278.87,89,32,4.23,RU,1682286421
482,brae,60.3964,-1.353,277.62,66,100,13.59,GB,1682286421
483,angoche,-16.2325,39.9086,297.44,78,4,2.96,MZ,1682286422
484,navrongo,10.8956,-1.0921,307.33,31,73,0.53,GH,1682286423
485,vengerovo,55.6848,76.7471,282.54,57,100,5.76,RU,1682286423
486,olafsvik,64.8945,-23.7142,276.13,53,97,3.28,IS,1682286424
487,kangaatsiaq,68.3065,-53.4641,273.2,98,100,5.6,GL,1682286425
488,scottsbluff,41.8666,-103.6672,288.87,28,40,3.09,US,1682286243
489,ridgecrest,35.6225,-117.6709,302.85,17,0,1.54,US,1682286187
490,baran,25.1,76.5167,296.97,37,0,2.53,IN,1682286426
491,ciudad bolivar,8.1222,-63.5497,301.58,67,99,1.03,VE,1682286426
492,madhogarh,26.276,79.1869,297.12,29,0,2.54,IN,1682286426
493,archidona,37.0965,-4.3887,289.49,33,0,1.9,ES,1682286427
494,tahta,26.7693,31.5021,298.01,28,28,2.14,EG,1682286427
495,shasta lake,40.6804,-122.3708,299.68,31,6,0.45,US,1682286428
496,walla walla,46.0646,-118.343,288.97,82,100,4.92,US,1682286148
497,mbaiki,3.8678,17.9892,295.65,82,68,1.1,CF,1682286428
498,manati,18.4275,-66.4921,301.24,82,52,2.54,PR,1682286429
499,roald,62.5833,6.1333,277.54,87,75,10.29,NO,1682286429
500,castle bruce,15.4333,-61.2667,300.12,74,28,1.43,DM,1682286430
501,hofn,64.2539,-15.2082,274.06,56,16,0.55,IS,1682286430
502,shelburne,44.0787,-80.2041,279.13,73,97,4.05,CA,1682286276
503,kwinana,-32.25,115.7667,289.36,88,83,1.79,AU,1682286431
504,inhambane,-23.865,35.3833,295.74,90,5,2.97,MZ,1682286431
505,biankouma,7.7391,-7.6138,294.51,97,98,1.79,CI,1682286432
506,santa isabel,-23.3156,-46.2214,294.76,94,13,1.46,BR,1682286432
507,okhotsk,59.3833,143.3,273.3,68,100,6.79,RU,1682286433
508,orbetello,42.4408,11.2196,288.16,85,100,8.29,IT,1682286433
509,wageningen,51.9667,5.6667,283.74,90,75,4.63,NL,1682286434
510,nikel,69.4128,30.222,270.25,87,72,3.97,RU,1682286434
511,sitangkai,4.6628,119.3928,301.87,74,46,3.34,PH,1682286435
512,langres,47.8333,5.3333,282.15,94,83,6.21,FR,1682286436
513,orange cove,36.6244,-119.3137,301.26,38,0,1.54,US,1682286436
514,vestmannaeyjar,63.4427,-20.2734,276.65,94,96,9.68,IS,1682286436
515,nagorsk,59.3172,50.8078,277.29,74,98,0.99,RU,1682286437
516,ola,59.5833,151.2833,274.65,68,90,8.85,RU,1682286437
517,lincoln,40.8,-96.667,288.71,36,100,2.06,US,1682285737
518,sangre grande,10.5835,-61.1177,300.47,98,98,3.31,TT,1682286438
519,tweed,44.4751,-77.3162,284.74,57,63,3.84,CA,1682286296
520,yantzaza,-3.8278,-78.7594,297.53,93,98,0.84,EC,1682286439
521,labuan,5.2767,115.2417,301.35,74,20,1.54,MY,1682286440
522,acari,-15.4311,-74.6158,299.08,61,2,3.27,PE,1682286440
523,tagusao,9.1924,117.8141,299.76,83,42,2.0,PH,1682286440
524,hovd,48.0056,91.6419,273.19,48,0,0.92,MN,1682286441
525,strezhevoy,60.7333,77.5889,276.39,97,100,4.88,RU,1682286441
526,pedernales,18.0384,-71.744,299.53,72,16,1.33,DO,1682286442
527,moerai,-22.4333,-151.3333,296.95,62,5,6.53,PF,1682286442
528,beringovskiy,63.05,179.3167,269.66,88,100,6.32,RU,1682286442
529,hendaye,43.3717,-1.7738,288.12,84,40,3.6,FR,1682286443
530,marquette,46.5333,-87.6335,274.96,68,100,3.13,US,1682286240
531,sinnamary,5.3833,-52.95,297.15,91,100,1.06,GF,1682286444
532,krasnaya gora,52.9995,31.6023,284.47,62,62,1.64,RU,1682286444
533,piopio,-38.4667,175.0167,289.31,66,51,4.45,NZ,1682286444
534,mersing,2.4312,103.8405,298.1,94,20,1.54,MY,1682286445
535,the valley,18.217,-63.0578,302.09,74,40,3.6,AI,1682286445
536,key west,24.5557,-81.7826,302.15,67,40,4.63,US,1682285718
537,kasongo,-4.45,26.6667,292.66,98,100,1.33,CD,1682286446
538,fuerte olimpo,-21.0415,-57.8738,296.24,52,6,1.53,PY,1682286446
539,poum,-20.2333,164.0167,299.34,77,64,7.44,NC,1682286447
540,zhuji,29.7188,120.2423,285.54,97,100,2.43,CN,1682286447
541,fort nelson,58.8053,-122.7002,283.12,43,75,6.69,CA,1682286448
542,maragogi,-9.0122,-35.2225,298.59,82,76,3.64,BR,1682286246
543,sao paulo de olivenca,-3.3783,-68.8725,297.81,95,100,0.31,BR,1682286448
544,kuytun,54.3419,101.5036,271.02,61,7,2.13,RU,1682286449
545,komsomolskiy,40.4272,71.7189,288.55,41,71,4.12,UZ,1682286449
546,gornyak,50.9942,81.4661,280.69,42,72,9.32,RU,1682286450
547,santo tomas,14.1079,121.1414,301.29,92,64,2.1,PH,1682286450
548,nerchinskiy zavod,51.3088,119.61,270.42,51,84,2.02,RU,1682286450
549,kastamonu,41.5,33.6667,279.83,93,100,0.63,TR,1682286451
550,namibe,-15.1961,12.1522,297.31,67,82,4.47,AO,1682286451
551,ambon,-3.6954,128.1814,298.23,94,20,2.06,ID,1682286256
552,izberbash,42.5696,47.8645,286.18,74,99,2.94,RU,1682286452
553,shimoda,34.6667,138.95,284.32,63,81,8.13,JP,1682286452
554,mapastepec,15.4333,-92.9,305.48,50,28,4.04,MX,1682286453
555,otane,-39.8833,176.6333,284.27,90,94,5.83,NZ,1682286453
556,bima,-8.4667,118.7167,296.31,94,10,1.5,ID,1682286454
557,saint-louis,16.3333,-15.0,304.95,26,2,6.68,SN,1682286454
558,tiszasuly,47.3833,20.4,284.81,71,20,3.38,HU,1682286455
559,florence,43.7667,11.25,289.11,69,0,2.06,IT,1682286455
560,coahuayana,18.7333,-103.6833,303.88,54,24,3.59,MX,1682286455
561,sao miguel,-5.4667,-35.3667,300.58,80,97,5.23,BR,1682286456
562,coquimbo,-29.9533,-71.3436,291.0,67,0,4.63,CL,1682286236
563,roura,4.7263,-52.3274,298.1,94,0,1.54,GF,1682286457
564,aguimes,27.9054,-15.4461,291.29,68,20,9.26,ES,1682286457
565,mandalgovi,45.7625,106.2708,278.79,20,100,6.51,MN,1682286295
